{
  "data": [
    {
      "index": 0,
      "name": "서울상수도사업본부",
      "address": "서울특별시 서대문구 서소문로 51(합동)",
      "lat": 37.5618559,
      "long": 126.96676709999998,
      "ntu": null,
      "chlorine": null,
      "pH": null
    },
    {
      "index": 1,
      "name": "가락",
      "address": "서울특별시 송파구 가락본동 53-6",
      "lat": null,
      "long": null,
      "ntu": null,
      "chlorine": null,
      "pH": null
    },
    {
      "index": 2,
      "name": "가양동문화공원",
      "address": "서울특별시 강서구 가양동 52-4",
      "lat": 37.566081700000005,
      "long": 126.84597609999999,
      "ntu": 0.14,
      "chlorine": 0.21,
      "pH": 7.2
    },
    {
      "index": 3,
      "name": "간데메공원",
      "address": "서울특별시 동대문구 답십리동 472-28",
      "lat": 37.5739066,
      "long": 127.04891770000002,
      "ntu": 0.09,
      "chlorine": 0.16,
      "pH": 6.9
    },
    {
      "index": 4,
      "name": "갈말공원",
      "address": "서울특별시 노원구 상계8동 654",
      "lat": 37.6657682,
      "long": 127.05420929999998,
      "ntu": null,
      "chlorine": null,
      "pH": null
    },
    {
      "index": 5,
      "name": "갈산공원",
      "address": "서울특별시 양천구 신정동 산77-10",
      "lat": 37.5090211,
      "long": 126.8693582,
      "ntu": 0.13,
      "chlorine": 0.11,
      "pH": 7.2
    },
    {
      "index": 6,
      "name": "갈월어린이공원",
      "address": "서울특별시 노원구 상계동 70",
      "lat": 37.670038399999996,
      "long": 127.0831897,
      "ntu": 0.11,
      "chlorine": 0.28,
      "pH": 7.0
    },
    {
      "index": 7,
      "name": "강변소공원",
      "address": "서울특별시 이촌동 214 건영한가람아파트",
      "lat": 37.530406799999994,
      "long": 126.95425220000001,
      "ntu": 0.24,
      "chlorine": 0.29,
      "pH": 7.3
    },
    {
      "index": 8,
      "name": "강북구민운동장",
      "address": "서울특별시 강북구 번2동 318",
      "lat": 37.6305915,
      "long": 127.0378149,
      "ntu": 0.11,
      "chlorine": 0.23,
      "pH": 7.1
    },
    {
      "index": 9,
      "name": "개롱",
      "address": "서울특별시 송파구 동남로 178",
      "lat": 37.4934599,
      "long": 127.13005890000001,
      "ntu": null,
      "chlorine": null,
      "pH": null
    },
    {
      "index": 10,
      "name": "개웅산공원",
      "address": "서울특별시 구로구 오류2동 산16-18",
      "lat": 37.489140899999995,
      "long": 126.8461733,
      "ntu": 0.14,
      "chlorine": 0.15,
      "pH": 7.4
    },
    {
      "index": 11,
      "name": "개포동근린공원",
      "address": "서울특별시 강남구 개포2동 182",
      "lat": 37.4897734,
      "long": 127.0690672,
      "ntu": null,
      "chlorine": null,
      "pH": null
    },
    {
      "index": 12,
      "name": "개포서근린공원",
      "address": "서울특별시 강남구 개포동 180",
      "lat": 37.4887532,
      "long": 127.063952,
      "ntu": null,
      "chlorine": null,
      "pH": null
    },
    {
      "index": 13,
      "name": "건너말",
      "address": "서울특별시 송파구 송이로26길 14",
      "lat": 37.4923172,
      "long": 127.1236679,
      "ntu": null,
      "chlorine": null,
      "pH": null
    },
    {
      "index": 14,
      "name": "경로구역공원",
      "address": "서울특별시 관악구 대학동 산32-23",
      "lat": 37.463901,
      "long": 126.94807209999999,
      "ntu": null,
      "chlorine": null,
      "pH": null
    },
    {
      "index": 15,
      "name": "경복궁",
      "address": "서울특별시 종로구 종로1.2.3.4가동 1-1",
      "lat": 37.572361799999996,
      "long": 126.9804358,
      "ntu": null,
      "chlorine": null,
      "pH": null
    },
    {
      "index": 16,
      "name": "경의선숲길공원",
      "address": "서울특별시 마포구 연남동 257-22",
      "lat": 37.5620444,
      "long": 126.92316159999999,
      "ntu": 0.11,
      "chlorine": 0.18,
      "pH": 7.1
    },
    {
      "index": 17,
      "name": "경춘선폐선부지공원",
      "address": "서울특별시 노원구 하계2동 333-4",
      "lat": 37.6317851,
      "long": 127.0684245,
      "ntu": 0.14,
      "chlorine": 0.23,
      "pH": 7.0
    },
    {
      "index": 18,
      "name": "경춘선폐선부지공원",
      "address": "서울특별시 노원구 하계동 333-16",
      "lat": 37.6317405,
      "long": 127.0684919,
      "ntu": 0.09,
      "chlorine": 0.28,
      "pH": 7.1
    },
    {
      "index": 19,
      "name": "경희궁공원",
      "address": "서울특별시 종로구 새문안로 45",
      "lat": 37.5717984,
      "long": 126.96798600000001,
      "ntu": null,
      "chlorine": null,
      "pH": null
    },
    {
      "index": 20,
      "name": "계남근린공원",
      "address": "서울특별시 양천구 신정동 621-9",
      "lat": 37.5102489,
      "long": 126.8554362,
      "ntu": null,
      "chlorine": null,
      "pH": null
    },
    {
      "index": 21,
      "name": "계남제2근린공원",
      "address": "서울특별시 구로구 중앙로17길 10",
      "lat": 37.509505600000004,
      "long": 126.85752409999999,
      "ntu": null,
      "chlorine": null,
      "pH": null
    },
    {
      "index": 22,
      "name": "고구동산공원",
      "address": "서울특별시 동작구 본동 126-450",
      "lat": 37.508062200000005,
      "long": 126.9542142,
      "ntu": null,
      "chlorine": null,
      "pH": null
    },
    {
      "index": 23,
      "name": "고덕천에너지테마촌",
      "address": "서울특별시 강동구 고덕동 41-8",
      "lat": 37.5681567,
      "long": 127.1626781,
      "ntu": 0.15,
      "chlorine": 0.16,
      "pH": 7.7
    },
    {
      "index": 24,
      "name": "고분다리어린이공원",
      "address": "서울특별시 강동구 천호2동 300",
      "lat": 37.5455298,
      "long": 127.13178799999999,
      "ntu": 0.09,
      "chlorine": 0.23,
      "pH": 7.2
    },
    {
      "index": 25,
      "name": "고척근린공원",
      "address": "서울특별시 구로구 고척2동 9-14",
      "lat": 37.5059294,
      "long": 126.8520057,
      "ntu": null,
      "chlorine": null,
      "pH": null
    },
    {
      "index": 26,
      "name": "고추말공원",
      "address": "서울특별시 영등포구 도림동 23-1",
      "lat": 37.5116464,
      "long": 126.9071149,
      "ntu": null,
      "chlorine": null,
      "pH": null
    },
    {
      "index": 27,
      "name": "골말어린이공원",
      "address": "서울특별시 금천구 가산동 28-2",
      "lat": 37.482876700000006,
      "long": 126.88452340000002,
      "ntu": 0.15,
      "chlorine": 0.11,
      "pH": 7.0
    },
    {
      "index": 28,
      "name": "곰돌이공원",
      "address": "서울특별시 강서구 화곡1동 900-46",
      "lat": 37.529568,
      "long": 126.8450187,
      "ntu": null,
      "chlorine": null,
      "pH": null
    },
    {
      "index": 29,
      "name": "공암나루",
      "address": "서울특별시 강서구 가양2동 1459-9",
      "lat": 37.5699296,
      "long": 126.8503314,
      "ntu": 0.14,
      "chlorine": 0.13,
      "pH": 7.1
    },
    {
      "index": 30,
      "name": "관동어린이공원",
      "address": "서울특별시 은평구 불광1동 270-11",
      "lat": 37.613673299999995,
      "long": 126.9297721,
      "ntu": null,
      "chlorine": null,
      "pH": null
    },
    {
      "index": 31,
      "name": "관악산샘말공원",
      "address": "서울특별시 관악구 신림동 산63-1",
      "lat": 37.4643388,
      "long": 126.9384365,
      "ntu": 0.23,
      "chlorine": 0.21,
      "pH": 7.3
    },
    {
      "index": 32,
      "name": "관악제2구민운동장",
      "address": "서울특별시 관악구 삼성동 산72-2",
      "lat": 37.458863,
      "long": 126.93351940000001,
      "ntu": 0.22,
      "chlorine": 0.11,
      "pH": 7.4
    },
    {
      "index": 33,
      "name": "광암아리수정수센타",
      "address": "경기도 하남시 광암동 174",
      "lat": 37.5199654,
      "long": 127.17268090000002,
      "ntu": null,
      "chlorine": null,
      "pH": null
    },
    {
      "index": 34,
      "name": "광진공원",
      "address": "서울특별시 강동구 천호2동 338-19",
      "lat": 37.5431424,
      "long": 127.12264029999999,
      "ntu": null,
      "chlorine": null,
      "pH": null
    },
    {
      "index": 35,
      "name": "광화문",
      "address": "서울특별시 종로구 세종로 1-56",
      "lat": 37.5771784,
      "long": 126.9754121,
      "ntu": null,
      "chlorine": null,
      "pH": null
    },
    {
      "index": 36,
      "name": "광화문광장(해치마당)",
      "address": "서울특별시 종로구 세종로 1-68",
      "lat": 37.572433399999994,
      "long": 126.976902,
      "ntu": 0.19,
      "chlorine": 0.15,
      "pH": 7.3
    },
    {
      "index": 37,
      "name": "구로거리공원",
      "address": "서울특별시 구로구 공원로 22",
      "lat": 37.4995429,
      "long": 126.8923875,
      "ntu": null,
      "chlorine": null,
      "pH": null
    },
    {
      "index": 38,
      "name": "구로근린공원",
      "address": "서울특별시 구로구 구로동 63-1",
      "lat": 37.4966886,
      "long": 126.8900564,
      "ntu": null,
      "chlorine": null,
      "pH": null
    },
    {
      "index": 39,
      "name": "구로어린이공원",
      "address": "서울특별시 구로구 구로4동 139-82",
      "lat": 37.490903,
      "long": 126.89160090000001,
      "ntu": null,
      "chlorine": null,
      "pH": null
    },
    {
      "index": 40,
      "name": "구룡공원",
      "address": "서울특별시 금천구 시흥1동 847-5",
      "lat": 37.4569136,
      "long": 126.90527709999999,
      "ntu": 0.14,
      "chlorine": 0.11,
      "pH": 7.0
    },
    {
      "index": 41,
      "name": "구산동마을공원",
      "address": "서울특별시 은평구 갈현동 340-10",
      "lat": 37.6144159,
      "long": 126.9065817,
      "ntu": 0.1,
      "chlorine": 0.17,
      "pH": 7.2
    },
    {
      "index": 42,
      "name": "구암 공원",
      "address": "서울특별시 강서구 가양동 440-2",
      "lat": 37.569349200000005,
      "long": 126.85336699999999,
      "ntu": null,
      "chlorine": null,
      "pH": null
    },
    {
      "index": 43,
      "name": "구암어린이",
      "address": "서울특별시 강동구 암사3동 449-8",
      "lat": 37.5565482,
      "long": 127.137628,
      "ntu": null,
      "chlorine": null,
      "pH": null
    },
    {
      "index": 44,
      "name": "구의공원",
      "address": "서울특별시 광진구 광나루로56길 86",
      "lat": 37.5365033,
      "long": 127.0947414,
      "ntu": null,
      "chlorine": null,
      "pH": null
    },
    {
      "index": 45,
      "name": "구의정수센터 앞",
      "address": "서울특별시 광진구 구의2동 541-1",
      "lat": 37.5446742,
      "long": 127.0928861,
      "ntu": 0.08,
      "chlorine": 0.27,
      "pH": 7.1
    },
    {
      "index": 46,
      "name": "궁동근린공원",
      "address": "서울특별시 서대문구 연희동 188-24",
      "lat": 37.570679399999996,
      "long": 126.92478929999999,
      "ntu": 0.15,
      "chlorine": 0.26,
      "pH": 7.0
    },
    {
      "index": 47,
      "name": "궁산 공원",
      "address": "서울특별시 강서구 마곡동 산3",
      "lat": 37.5728909,
      "long": 126.8384307,
      "ntu": null,
      "chlorine": null,
      "pH": null
    },
    {
      "index": 48,
      "name": "궁산근린공원",
      "address": "서울특별시 강서구 가양동 산4-7",
      "lat": 37.5741566,
      "long": 126.8407986,
      "ntu": 0.2,
      "chlorine": 0.1,
      "pH": 7.2
    },
    {
      "index": 49,
      "name": "글샘근린공원",
      "address": "서울특별시 송파구 문정2동 297",
      "lat": 37.4794015,
      "long": 127.12170230000001,
      "ntu": 0.13,
      "chlorine": 0.23,
      "pH": 7.4
    },
    {
      "index": 50,
      "name": "금천체육공원",
      "address": "서울특별시 금천구 독산로54길 102-27",
      "lat": 37.468323100000006,
      "long": 126.9085446,
      "ntu": 0.13,
      "chlorine": 0.18,
      "pH": 7.0
    },
    {
      "index": 51,
      "name": "금호근린공원",
      "address": "서울특별시 성동구 금호동3가 1266-2",
      "lat": 37.5498902,
      "long": 127.01891359999999,
      "ntu": null,
      "chlorine": null,
      "pH": null
    },
    {
      "index": 52,
      "name": "길동생태공원",
      "address": "서울특별시 강동구 길동 1",
      "lat": 37.5401549,
      "long": 127.1550639,
      "ntu": 0.1,
      "chlorine": 0.3,
      "pH": 7.5
    },
    {
      "index": 53,
      "name": "길음8-1어린이공원",
      "address": "서울특별시 성북구 길음동 875-16",
      "lat": 37.6084398,
      "long": 127.0204719,
      "ntu": 0.22,
      "chlorine": 0.24,
      "pH": 7.1
    },
    {
      "index": 54,
      "name": "까치산 공원",
      "address": "서울특별시 동작구 사당5동 32-2",
      "lat": 37.4842827,
      "long": 126.9636219,
      "ntu": 0.14,
      "chlorine": 0.32,
      "pH": 7.0
    },
    {
      "index": 55,
      "name": "꽃동산어린이공원",
      "address": "서울특별시 중랑구 망우동 441-1",
      "lat": 37.5913021,
      "long": 127.09902109999999,
      "ntu": null,
      "chlorine": null,
      "pH": null
    },
    {
      "index": 56,
      "name": "꿈나라어린이공원",
      "address": "서울특별시 성북구 보문동 7가 108-2",
      "lat": 37.580070899999996,
      "long": 127.0230514,
      "ntu": 0.2,
      "chlorine": 0.28,
      "pH": 6.8
    },
    {
      "index": 57,
      "name": "나들이공원",
      "address": "서울특별시 중랑구 망우동 산31-2",
      "lat": 37.604310600000005,
      "long": 127.11267990000002,
      "ntu": null,
      "chlorine": null,
      "pH": null
    },
    {
      "index": 58,
      "name": "나들이어린이공원",
      "address": "서울특별시 강서구 가양동 1459-1",
      "lat": 37.5718448,
      "long": 126.8442649,
      "ntu": 0.14,
      "chlorine": 0.22,
      "pH": 7.2
    },
    {
      "index": 59,
      "name": "낙산공원",
      "address": "서울특별시 종로구 동숭동 50-146",
      "lat": 37.5807544,
      "long": 127.0075763,
      "ntu": null,
      "chlorine": null,
      "pH": null
    },
    {
      "index": 60,
      "name": "낙성대광장공원",
      "address": "서울특별시 관악구 낙성대동 산48-6",
      "lat": 37.4708405,
      "long": 126.95982439999999,
      "ntu": null,
      "chlorine": null,
      "pH": null
    },
    {
      "index": 61,
      "name": "낙성대야외놀이마당",
      "address": "서울특별시 관악구 봉천동 288-5",
      "lat": 37.4735346,
      "long": 126.9599652,
      "ntu": null,
      "chlorine": null,
      "pH": null
    },
    {
      "index": 62,
      "name": "남산공원",
      "address": "서울특별시 중구 회현동 30-66",
      "lat": null,
      "long": null,
      "ntu": null,
      "chlorine": null,
      "pH": null
    },
    {
      "index": 63,
      "name": "너른골어린이공원",
      "address": "서울특별시 서초구 방배1동 144-18",
      "lat": 37.4874842,
      "long": 126.99485890000001,
      "ntu": 0.08,
      "chlorine": 0.19,
      "pH": 7.1
    },
    {
      "index": 64,
      "name": "노들섬 텃밭공원",
      "address": "서울특별시 용산구 이촌동 302-214",
      "lat": 37.5180709,
      "long": 126.95890559999998,
      "ntu": null,
      "chlorine": null,
      "pH": null
    },
    {
      "index": 65,
      "name": "노량진 근린공원",
      "address": "서울특별시 동작구 본동 136-96",
      "lat": null,
      "long": null,
      "ntu": 0.23,
      "chlorine": 0.1,
      "pH": 7.1
    },
    {
      "index": 66,
      "name": "노량진근린2공원(송학대공원)",
      "address": "서울특별시 동작구 노량진동 225-248",
      "lat": 37.508976700000005,
      "long": 126.943275,
      "ntu": 0.14,
      "chlorine": 0.21,
      "pH": 7.0
    },
    {
      "index": 67,
      "name": "노량진배수지 시민공원",
      "address": "서울특별시 동작구 본동 258-1",
      "lat": 37.5137255,
      "long": 126.9536327,
      "ntu": null,
      "chlorine": null,
      "pH": null
    },
    {
      "index": 68,
      "name": "노을공원",
      "address": "서울특별시 강서구 화곡동 105-194",
      "lat": 37.53986870000001,
      "long": 126.8439652,
      "ntu": null,
      "chlorine": null,
      "pH": null
    },
    {
      "index": 69,
      "name": "녹번마을마당",
      "address": "서울특별시 은평구 녹번동 104-13",
      "lat": 37.6061526,
      "long": 126.9274787,
      "ntu": 0.09,
      "chlorine": 0.16,
      "pH": 7.2
    },
    {
      "index": 70,
      "name": "녹번서근린공원",
      "address": "서울특별시 은평구 녹번동 100-85",
      "lat": 37.604144700000006,
      "long": 126.92723079999999,
      "ntu": 0.12,
      "chlorine": 0.15,
      "pH": 7.2
    },
    {
      "index": 71,
      "name": "논현소나무어린이",
      "address": "서울특별시 강남구 논현2동 239",
      "lat": 37.515718799999995,
      "long": 127.0374554,
      "ntu": null,
      "chlorine": null,
      "pH": null
    },
    {
      "index": 72,
      "name": "느티울근린공원",
      "address": "서울특별시 노원구 상계동 741-1",
      "lat": 37.649131,
      "long": 127.0581131,
      "ntu": null,
      "chlorine": null,
      "pH": null
    },
    {
      "index": 73,
      "name": "늘벚근린공원",
      "address": "서울특별시 강남구 대치1동 501",
      "lat": 37.4895676,
      "long": 127.0571643,
      "ntu": 0.16,
      "chlorine": 0.15,
      "pH": 7.0
    },
    {
      "index": 74,
      "name": "능골마을마당",
      "address": "서울특별시 금천구 독산4동 산193-3",
      "lat": 37.4675485,
      "long": 126.9074446,
      "ntu": 0.13,
      "chlorine": 0.15,
      "pH": 7.0
    },
    {
      "index": 75,
      "name": "능골어린이공원",
      "address": "서울특별시 구로구 고척동 1-15",
      "lat": 37.508461600000004,
      "long": 126.8590185,
      "ntu": 0.11,
      "chlorine": 0.3,
      "pH": 7.1
    },
    {
      "index": 76,
      "name": "다람쥐어린이공원",
      "address": "서울특별시 도봉구 창1동 624-16",
      "lat": null,
      "long": null,
      "ntu": null,
      "chlorine": null,
      "pH": null
    },
    {
      "index": 77,
      "name": "다래어린이공원",
      "address": "서울특별시 은평구 응암동 751-22",
      "lat": 37.58715120000001,
      "long": 126.9189973,
      "ntu": 0.1,
      "chlorine": 0.17,
      "pH": 7.2
    },
    {
      "index": 78,
      "name": "달빛어린이공원",
      "address": "서울특별시 노원구 노원로 532",
      "lat": 37.6632641,
      "long": 127.05924040000001,
      "ntu": 0.17,
      "chlorine": 0.14,
      "pH": 7.2
    },
    {
      "index": 79,
      "name": "답십리공원",
      "address": "서울특별시 동대문구 답십리2동 산2-158",
      "lat": 37.5748211,
      "long": 127.0636415,
      "ntu": null,
      "chlorine": null,
      "pH": null
    },
    {
      "index": 80,
      "name": "당고개어린이공원",
      "address": "서울특별시 종로구 창신2동 23-348",
      "lat": 37.5759847,
      "long": 127.0123631,
      "ntu": null,
      "chlorine": null,
      "pH": null
    },
    {
      "index": 81,
      "name": "당산공원",
      "address": "서울특별시 영등포구 당산1동 383",
      "lat": 37.5229845,
      "long": 126.89778500000001,
      "ntu": null,
      "chlorine": null,
      "pH": null
    },
    {
      "index": 82,
      "name": "당현천근린공원",
      "address": "서울특별시 노원구 상계6.7동 762-1",
      "lat": 37.6477538,
      "long": 127.0634199,
      "ntu": null,
      "chlorine": null,
      "pH": null
    },
    {
      "index": 83,
      "name": "대림생태공원",
      "address": "서울특별시 영등포구 대림3동 611",
      "lat": 37.504114200000004,
      "long": 126.8948242,
      "ntu": 0.12,
      "chlorine": 0.15,
      "pH": 7.0
    },
    {
      "index": 84,
      "name": "대림어린이공원",
      "address": "서울특별시 영등포구 대림로 106",
      "lat": 37.491348200000004,
      "long": 126.90302220000001,
      "ntu": null,
      "chlorine": null,
      "pH": null
    },
    {
      "index": 85,
      "name": "대림체육공원",
      "address": "서울특별시 영등포구 대림3동 780",
      "lat": 37.49970220000001,
      "long": 126.89470700000001,
      "ntu": null,
      "chlorine": null,
      "pH": null
    },
    {
      "index": 86,
      "name": "대청근린공원",
      "address": "서울특별시 강남구 개포로124길 24",
      "lat": 37.49319129999999,
      "long": 127.08300919999999,
      "ntu": null,
      "chlorine": null,
      "pH": null
    },
    {
      "index": 87,
      "name": "대치근린공원",
      "address": "서울특별시 강남구 대치2동 512",
      "lat": 37.4951027,
      "long": 127.06987290000001,
      "ntu": 0.15,
      "chlorine": 0.14,
      "pH": 7.0
    },
    {
      "index": 88,
      "name": "대현산배수지",
      "address": "서울특별시 성동구 금호1가동 1-173",
      "lat": 37.5566434,
      "long": 127.0205761,
      "ntu": 0.08,
      "chlorine": 0.15,
      "pH": 7.2
    },
    {
      "index": 89,
      "name": "덕수궁공원",
      "address": "서울특별시 중구 세종대로 99",
      "lat": 37.5660945,
      "long": 126.97491480000001,
      "ntu": null,
      "chlorine": null,
      "pH": null
    },
    {
      "index": 90,
      "name": "덕의근린공원",
      "address": "서울특별시 구로구 고척2동 214-3",
      "lat": 37.506943400000004,
      "long": 126.8561365,
      "ntu": 0.09,
      "chlorine": 0.31,
      "pH": 7.0
    },
    {
      "index": 91,
      "name": "도봉산만남의광장",
      "address": "서울특별시 도봉구 도봉동 282-60",
      "lat": 37.687123,
      "long": 127.0394107,
      "ntu": 0.1,
      "chlorine": 0.1,
      "pH": 7.1
    },
    {
      "index": 92,
      "name": "도산근린공원",
      "address": "서울특별시 강남구 신사동 649-9",
      "lat": 37.5243935,
      "long": 127.0351327,
      "ntu": null,
      "chlorine": null,
      "pH": null
    },
    {
      "index": 93,
      "name": "도화동 복사꽃공원",
      "address": "서울특별시 마포구 도화동 292-35",
      "lat": 37.5388884,
      "long": 126.94657820000002,
      "ntu": null,
      "chlorine": null,
      "pH": null
    },
    {
      "index": 94,
      "name": "도화동 생활체육공원",
      "address": "서울특별시 마포구 토정로37길 22",
      "lat": 37.54104829999999,
      "long": 126.94535630000001,
      "ntu": null,
      "chlorine": null,
      "pH": null
    },
    {
      "index": 95,
      "name": "독립공원",
      "address": "서울특별시 서대문구 현저동 산12-2",
      "lat": null,
      "long": null,
      "ntu": null,
      "chlorine": null,
      "pH": null
    },
    {
      "index": 96,
      "name": "독립문어린이공원",
      "address": "서울특별시 서대문구 현저동 941",
      "lat": 37.5722547,
      "long": 126.95955719999999,
      "ntu": null,
      "chlorine": null,
      "pH": null
    },
    {
      "index": 97,
      "name": "독산근린공원",
      "address": "서울특별시 금천구 독산동 1086",
      "lat": 37.4636788,
      "long": 126.8841396,
      "ntu": null,
      "chlorine": null,
      "pH": null
    },
    {
      "index": 98,
      "name": "독서당공원",
      "address": "서울특별시 성동구 금호동 1가 산 37-7",
      "lat": 37.550717999999996,
      "long": 127.0288742,
      "ntu": null,
      "chlorine": null,
      "pH": null
    },
    {
      "index": 99,
      "name": "동대문구 문화원",
      "address": "서울특별시 동대문구 답십리로 210-9",
      "lat": 37.5718046,
      "long": 127.0637959,
      "ntu": null,
      "chlorine": null,
      "pH": null
    },
    {
      "index": 100,
      "name": "동대문구 체육관",
      "address": "서울특별시 동대문구 답십리동 2-294",
      "lat": 37.5722951,
      "long": 127.0639906,
      "ntu": null,
      "chlorine": null,
      "pH": null
    },
    {
      "index": 101,
      "name": "동마장어린이공원",
      "address": "서울특별시 성동구 마장동 780-1",
      "lat": 37.5661177,
      "long": 127.0458015,
      "ntu": 0.09,
      "chlorine": 0.18,
      "pH": 7.1
    },
    {
      "index": 102,
      "name": "동망봉어린이공원",
      "address": "서울특별시 성북구 보문동 218-17",
      "lat": 37.583918700000005,
      "long": 127.0170614,
      "ntu": 0.14,
      "chlorine": 0.18,
      "pH": 7.1
    },
    {
      "index": 103,
      "name": "동명근린",
      "address": "서울특별시 강동구 고덕2동 215",
      "lat": 37.5598222,
      "long": 127.16757439999999,
      "ntu": null,
      "chlorine": null,
      "pH": null
    },
    {
      "index": 104,
      "name": "동묘공원",
      "address": "서울특별시 종로구 숭인2동 238-1",
      "lat": 37.57298,
      "long": 127.01833359999999,
      "ntu": null,
      "chlorine": null,
      "pH": null
    },
    {
      "index": 105,
      "name": "동방어린이공원",
      "address": "서울특별시 성북구 장위1동 219-223",
      "lat": 37.616655200000004,
      "long": 127.04352859999999,
      "ntu": 0.25,
      "chlorine": 0.17,
      "pH": 7.0
    },
    {
      "index": 106,
      "name": "동작주차근린공원",
      "address": "서울특별시 동작구 사당동 121-5",
      "lat": 37.4883684,
      "long": 126.97842279999999,
      "ntu": null,
      "chlorine": null,
      "pH": null
    },
    {
      "index": 107,
      "name": "두레근린공원",
      "address": "서울특별시 강동구 고덕1동 497",
      "lat": 37.558031799999995,
      "long": 127.15236509999998,
      "ntu": 0.09,
      "chlorine": 0.25,
      "pH": 7.3
    },
    {
      "index": 108,
      "name": "두리어린이공원",
      "address": "서울특별시 마포구 월드컵로31길 69",
      "lat": 37.5602955,
      "long": 126.9012273,
      "ntu": 0.09,
      "chlorine": 0.18,
      "pH": 7.0
    },
    {
      "index": 109,
      "name": "둔촌어린이",
      "address": "서울특별시 강동구 둔촌동 79-4",
      "lat": 37.5314518,
      "long": 127.14333130000001,
      "ntu": null,
      "chlorine": null,
      "pH": null
    },
    {
      "index": 110,
      "name": "뚝섬한강공원",
      "address": "서울특별시 광진구 자양동 427-12",
      "lat": 37.5291698,
      "long": 127.07129109999998,
      "ntu": 0.09,
      "chlorine": 0.22,
      "pH": 7.1
    },
    {
      "index": 111,
      "name": "로보카폴리어린이교통공원",
      "address": "서울특별시 노원구 덕릉로 483",
      "lat": 37.6456281,
      "long": 127.0627297,
      "ntu": null,
      "chlorine": null,
      "pH": null
    },
    {
      "index": 112,
      "name": "마로니에공원",
      "address": "서울특별시 종로구 대학로 104",
      "lat": 37.5803661,
      "long": 127.0024005,
      "ntu": null,
      "chlorine": null,
      "pH": null
    },
    {
      "index": 113,
      "name": "마을마당공원",
      "address": "서울특별시 동대문구 전농동 150-63",
      "lat": 37.5830408,
      "long": 127.05447379999998,
      "ntu": null,
      "chlorine": null,
      "pH": null
    },
    {
      "index": 114,
      "name": "마천근린공원",
      "address": "서울특별시 송파구 성내천로23길 12",
      "lat": 37.501742,
      "long": 127.14543799999998,
      "ntu": 0.14,
      "chlorine": 0.23,
      "pH": 7.4
    },
    {
      "index": 115,
      "name": "메낙골근린공원",
      "address": "서울특별시 영등포구 신길1동 4934-4",
      "lat": 37.506407700000004,
      "long": 126.9156152,
      "ntu": 0.13,
      "chlorine": 0.22,
      "pH": 7.2
    },
    {
      "index": 116,
      "name": "명달근린공원",
      "address": "서울특별시 서초구 서초동 1314",
      "lat": 37.4982703,
      "long": 127.0207988,
      "ntu": null,
      "chlorine": null,
      "pH": null
    },
    {
      "index": 117,
      "name": "목동근린공원",
      "address": "서울특별시 양천구 목동 517-34",
      "lat": 37.5465224,
      "long": 126.87929720000001,
      "ntu": 0.12,
      "chlorine": 0.22,
      "pH": 7.2
    },
    {
      "index": 118,
      "name": "목마근린공원",
      "address": "서울특별시 양천구 목5동 910",
      "lat": 37.5382014,
      "long": 126.8855251,
      "ntu": null,
      "chlorine": null,
      "pH": null
    },
    {
      "index": 119,
      "name": "목화어린이공원",
      "address": "서울특별시 금천구 독산3동 883-9",
      "lat": 37.47744829999999,
      "long": 126.9072547,
      "ntu": 0.13,
      "chlorine": 0.12,
      "pH": 6.9
    },
    {
      "index": 120,
      "name": "무지개어린이공원",
      "address": "서울특별시 성동구 성수동2가 313-70",
      "lat": null,
      "long": null,
      "ntu": null,
      "chlorine": null,
      "pH": null
    },
    {
      "index": 121,
      "name": "무학봉 어린이공원",
      "address": "서울특별시 중구 신당동 산2-7",
      "lat": 37.5628779,
      "long": 127.0249669,
      "ntu": null,
      "chlorine": null,
      "pH": null
    },
    {
      "index": 122,
      "name": "문래공원",
      "address": "서울특별시 영등포구 문래동3가 66",
      "lat": 37.5174992,
      "long": 126.894295,
      "ntu": null,
      "chlorine": null,
      "pH": null
    },
    {
      "index": 123,
      "name": "문래근린공원",
      "address": "서울특별시 영등포구 경인로94길 9-9",
      "lat": 37.5145079,
      "long": 126.90347390000001,
      "ntu": 0.13,
      "chlorine": 0.15,
      "pH": 7.0
    },
    {
      "index": 124,
      "name": "문정",
      "address": "서울특별시 송파구 문정동 18-7",
      "lat": 37.486789200000004,
      "long": 127.1287303,
      "ntu": null,
      "chlorine": null,
      "pH": null
    },
    {
      "index": 125,
      "name": "문화예술공원",
      "address": "서울특별시 서초구 바우뫼로12길 40",
      "lat": 37.4698841,
      "long": 127.03202160000001,
      "ntu": null,
      "chlorine": null,
      "pH": null
    },
    {
      "index": 126,
      "name": "물빛어린이공원",
      "address": "서울특별시 은평구 갈현동 397",
      "lat": 37.618942600000004,
      "long": 126.92086640000001,
      "ntu": null,
      "chlorine": null,
      "pH": null
    },
    {
      "index": 127,
      "name": "물새어린이공원",
      "address": "서울특별시 동작구 흑석동 105",
      "lat": 37.508573600000005,
      "long": 126.96296979999998,
      "ntu": 0.25,
      "chlorine": 0.1,
      "pH": 7.0
    },
    {
      "index": 128,
      "name": "미소어린이공원",
      "address": "서울특별시 성동구 하왕십리동 1000-752",
      "lat": 37.5602712,
      "long": 127.0236943,
      "ntu": null,
      "chlorine": null,
      "pH": null
    },
    {
      "index": 129,
      "name": "발바닥공원",
      "address": "서울특별시 도봉구 쌍문동 221-22",
      "lat": 37.6595501,
      "long": 127.0317961,
      "ntu": 0.11,
      "chlorine": 0.23,
      "pH": 7.0
    },
    {
      "index": 130,
      "name": "방이",
      "address": "서울특별시 송파구 방이2동 52-2",
      "lat": 37.5146946,
      "long": 127.11421909999999,
      "ntu": null,
      "chlorine": null,
      "pH": null
    },
    {
      "index": 131,
      "name": "방화 공원",
      "address": "서울특별시 강서구 방화동 산135-3",
      "lat": 37.582201399999995,
      "long": 126.81388490000002,
      "ntu": null,
      "chlorine": null,
      "pH": null
    },
    {
      "index": 132,
      "name": "방화대교 남단",
      "address": "서울특별시 강서구 방화3 54",
      "lat": null,
      "long": null,
      "ntu": 0.14,
      "chlorine": 0.22,
      "pH": 7.3
    },
    {
      "index": 133,
      "name": "배밭공원",
      "address": "서울특별시 중랑구 망우3동 산69-203",
      "lat": 37.589724100000005,
      "long": 127.1032159,
      "ntu": null,
      "chlorine": null,
      "pH": null
    },
    {
      "index": 134,
      "name": "배봉공원",
      "address": "서울특별시 동대문구 전농2동 산32-3",
      "lat": 37.581179799999994,
      "long": 127.06380349999999,
      "ntu": null,
      "chlorine": null,
      "pH": null
    },
    {
      "index": 135,
      "name": "백련근린공원",
      "address": "서울특별시 은평구 응암1동 산7-5",
      "lat": null,
      "long": null,
      "ntu": 0.13,
      "chlorine": 0.21,
      "pH": 7.0
    },
    {
      "index": 136,
      "name": "백토",
      "address": "서울특별시 송파구 오금동 6",
      "lat": 37.5082096,
      "long": 127.1325902,
      "ntu": null,
      "chlorine": null,
      "pH": null
    },
    {
      "index": 137,
      "name": "버들 공원",
      "address": "서울특별시 강서구 화곡동 424-45",
      "lat": 37.5311347,
      "long": 126.84124479999998,
      "ntu": null,
      "chlorine": null,
      "pH": null
    },
    {
      "index": 138,
      "name": "번남어린이공원",
      "address": "서울특별시 강북구 번1동 447-1",
      "lat": 37.6357781,
      "long": 127.0249554,
      "ntu": null,
      "chlorine": null,
      "pH": null
    },
    {
      "index": 139,
      "name": "볕우물",
      "address": "서울특별시 강동구 고덕로24가길 8",
      "lat": 37.553334,
      "long": 127.1359152,
      "ntu": null,
      "chlorine": null,
      "pH": null
    },
    {
      "index": 140,
      "name": "보라매공원",
      "address": "서울특별시 동작구 신대방2동 395",
      "lat": 37.495381099999996,
      "long": 126.9189142,
      "ntu": 0.12,
      "chlorine": 0.23,
      "pH": 7.0
    },
    {
      "index": 141,
      "name": "보라매공원(배드민턴장)",
      "address": "서울특별시 동작구 신대방2동 717-2",
      "lat": null,
      "long": null,
      "ntu": 0.15,
      "chlorine": 0.1,
      "pH": 7.0
    },
    {
      "index": 142,
      "name": "보은소공원",
      "address": "서울특별시 서대문구 홍은1동 48-25",
      "lat": 37.5950032,
      "long": 126.9466328,
      "ntu": 0.12,
      "chlorine": 0.15,
      "pH": 7.1
    },
    {
      "index": 143,
      "name": "봉수대공원",
      "address": "서울특별시 중랑구 신내동 산124",
      "lat": 37.6076943,
      "long": 127.0911993,
      "ntu": null,
      "chlorine": null,
      "pH": null
    },
    {
      "index": 144,
      "name": "봉원소공원",
      "address": "서울특별시 서대문구 봉원동 52",
      "lat": 37.5695124,
      "long": 126.9454409,
      "ntu": 0.1,
      "chlorine": 0.15,
      "pH": 7.1
    },
    {
      "index": 145,
      "name": "봉제산 공원",
      "address": "서울특별시 강서구 화곡동 산41-11",
      "lat": 37.5422376,
      "long": 126.85285490000001,
      "ntu": null,
      "chlorine": null,
      "pH": null
    },
    {
      "index": 146,
      "name": "봉제산근린공원(자연체험학습원)",
      "address": "서울특별시 강서구 화곡동 산42-1",
      "lat": 37.5428534,
      "long": 126.8545994,
      "ntu": 0.14,
      "chlorine": 0.17,
      "pH": 7.3
    },
    {
      "index": 147,
      "name": "봉화산근린공원(유아숲체험장)",
      "address": "서울특별시 노원구 중계로6가길 18",
      "lat": 37.643901799999995,
      "long": 127.08506200000001,
      "ntu": 0.13,
      "chlorine": 0.18,
      "pH": 7.0
    },
    {
      "index": 148,
      "name": "북서울꿈의숲",
      "address": "서울특별시 강북구 번3동 628-1",
      "lat": 37.621286100000006,
      "long": 127.0414885,
      "ntu": 0.11,
      "chlorine": 0.11,
      "pH": 7.0
    },
    {
      "index": 149,
      "name": "북한산도시자연공원",
      "address": "서울특별시 강북구 삼양동 산108-19",
      "lat": 37.6210843,
      "long": 127.00845290000001,
      "ntu": null,
      "chlorine": null,
      "pH": null
    },
    {
      "index": 150,
      "name": "북한산둘레길(홍은한마당)",
      "address": "서울특별시 서대문구 홍은1동 1-504",
      "lat": 37.6002006,
      "long": 126.944107,
      "ntu": 0.13,
      "chlorine": 0.12,
      "pH": 7.2
    },
    {
      "index": 151,
      "name": "불광근린공원",
      "address": "서울특별시 은평구 불광1동 산58-19",
      "lat": 37.6189089,
      "long": 126.9307585,
      "ntu": null,
      "chlorine": null,
      "pH": null
    },
    {
      "index": 152,
      "name": "불광어린이공원",
      "address": "서울특별시 은평구 불광동 236-14",
      "lat": 37.615547,
      "long": 126.9314888,
      "ntu": null,
      "chlorine": null,
      "pH": null
    },
    {
      "index": 153,
      "name": "비석골근린공원",
      "address": "서울특별시 노원구 월계2동 779",
      "lat": 37.6308948,
      "long": 127.04868700000002,
      "ntu": 0.13,
      "chlorine": 0.14,
      "pH": 7.0
    },
    {
      "index": 154,
      "name": "사가정공원",
      "address": "서울특별시 중랑구 면목동 산50",
      "lat": 37.5787999,
      "long": 127.0964009,
      "ntu": null,
      "chlorine": null,
      "pH": null
    },
    {
      "index": 155,
      "name": "사육신묘지공원",
      "address": "서울특별시 동작구 노량진1동 155-1",
      "lat": 37.5132952,
      "long": 126.9479445,
      "ntu": null,
      "chlorine": null,
      "pH": null
    },
    {
      "index": 156,
      "name": "사육신역사공원",
      "address": "서울특별시 동작구 노량진1동 155-1",
      "lat": 37.5132952,
      "long": 126.9479445,
      "ntu": 0.17,
      "chlorine": 0.14,
      "pH": 7.0
    },
    {
      "index": 157,
      "name": "산기슭공원",
      "address": "서울특별시 금천구 시흥동 138-3",
      "lat": 37.4633463,
      "long": 126.9073913,
      "ntu": 0.12,
      "chlorine": 0.14,
      "pH": 7.0
    },
    {
      "index": 158,
      "name": "살곳이공원",
      "address": "서울특별시 성동구 사근동 107-3",
      "lat": 37.5551956,
      "long": 127.04984409999999,
      "ntu": null,
      "chlorine": null,
      "pH": null
    },
    {
      "index": 159,
      "name": "삼각어린이공원",
      "address": "서울특별시 구로구 구로동 47",
      "lat": 37.501372499999995,
      "long": 126.89204,
      "ntu": null,
      "chlorine": null,
      "pH": null
    },
    {
      "index": 160,
      "name": "삼각지어린이공원",
      "address": "서울특별시 용산구 한강로동 1-96",
      "lat": 37.5344475,
      "long": 126.97545249999999,
      "ntu": null,
      "chlorine": null,
      "pH": null
    },
    {
      "index": 161,
      "name": "삼일근린공원",
      "address": "서울특별시 동작구 사당동 169-30",
      "lat": 37.485946899999995,
      "long": 126.9750669,
      "ntu": null,
      "chlorine": null,
      "pH": null
    },
    {
      "index": 162,
      "name": "삼전근린",
      "address": "서울특별시 송파구 오금동 6",
      "lat": 37.5082096,
      "long": 127.1325902,
      "ntu": null,
      "chlorine": null,
      "pH": null
    },
    {
      "index": 163,
      "name": "삼학사어린이",
      "address": "서울특별시 송파구 삼전동 110-7",
      "lat": 37.5061653,
      "long": 127.09550890000001,
      "ntu": null,
      "chlorine": null,
      "pH": null
    },
    {
      "index": 164,
      "name": "상계근린공원",
      "address": "서울특별시 노원구 상계동 915-2",
      "lat": 37.669866600000006,
      "long": 127.0495408,
      "ntu": 0.17,
      "chlorine": 0.22,
      "pH": 7.1
    },
    {
      "index": 165,
      "name": "상명달공원",
      "address": "서울특별시 서초구 서초3동 1488-4",
      "lat": 37.4821488,
      "long": 127.00565230000001,
      "ntu": 0.14,
      "chlorine": 0.2,
      "pH": 7.0
    },
    {
      "index": 166,
      "name": "상암근린공원",
      "address": "서울특별시 마포구 상암동 산26-15",
      "lat": 37.5764329,
      "long": 126.88630090000001,
      "ntu": 0.09,
      "chlorine": 0.18,
      "pH": 7.2
    },
    {
      "index": 167,
      "name": "상암동노을공원",
      "address": "서울특별시 마포구 상암동 492",
      "lat": 37.5687333,
      "long": 126.8738094,
      "ntu": 0.1,
      "chlorine": 0.22,
      "pH": 7.1
    },
    {
      "index": 168,
      "name": "상원어린이공원",
      "address": "서울특별시 성동구 성수1가2동 1",
      "lat": 37.5531515,
      "long": 127.04635230000001,
      "ntu": null,
      "chlorine": null,
      "pH": null
    },
    {
      "index": 169,
      "name": "새들어린이공원",
      "address": "서울특별시 관악구 신림동 1441-1",
      "lat": 37.488476299999995,
      "long": 126.9268976,
      "ntu": 0.15,
      "chlorine": 0.22,
      "pH": 7.5
    },
    {
      "index": 170,
      "name": "새락골어린이공원",
      "address": "서울특별시 은평구 신사1동 5-21",
      "lat": 37.598974,
      "long": 126.9111986,
      "ntu": 0.13,
      "chlorine": 0.18,
      "pH": 7.2
    },
    {
      "index": 171,
      "name": "새말 공원",
      "address": "서울특별시 강서구 화곡6동 994-5",
      "lat": 37.5519365,
      "long": 126.8463872,
      "ntu": null,
      "chlorine": null,
      "pH": null
    },
    {
      "index": 172,
      "name": "새싹어린이공원",
      "address": "서울특별시 관악구 봉천동 1512-18",
      "lat": 37.484628799999996,
      "long": 126.94948529999999,
      "ntu": null,
      "chlorine": null,
      "pH": null
    },
    {
      "index": 173,
      "name": "샘터근린",
      "address": "서울특별시 강동구 고덕동 303",
      "lat": 37.5618134,
      "long": 127.1566666,
      "ntu": null,
      "chlorine": null,
      "pH": null
    },
    {
      "index": 174,
      "name": "샛마을",
      "address": "서울특별시 강동구 명일1동 289-8",
      "lat": 37.5497018,
      "long": 127.1474601,
      "ntu": null,
      "chlorine": null,
      "pH": null
    },
    {
      "index": 175,
      "name": "샛별어린이공원",
      "address": "서울특별시 강동구 성내동 566",
      "lat": 37.527007899999994,
      "long": 127.1270702,
      "ntu": null,
      "chlorine": null,
      "pH": null
    },
    {
      "index": 176,
      "name": "샛팽이어린이",
      "address": "서울특별시 송파구 가락동 170-6",
      "lat": 37.4968609,
      "long": 127.13412859999998,
      "ntu": null,
      "chlorine": null,
      "pH": null
    },
    {
      "index": 177,
      "name": "서강나루문화공원",
      "address": "서울특별시 마포구 서강동 165-5",
      "lat": 37.545331899999994,
      "long": 126.9310762,
      "ntu": 0.09,
      "chlorine": 0.15,
      "pH": 7.2
    },
    {
      "index": 178,
      "name": "서빙고근린공원",
      "address": "서울특별시 용산구 용산동 5가 24-2",
      "lat": 37.5247831,
      "long": 126.97125890000001,
      "ntu": 0.28,
      "chlorine": 0.19,
      "pH": 7.8
    },
    {
      "index": 179,
      "name": "서서울호수공원",
      "address": "서울특별시 양천구 신월동 269",
      "lat": 37.528242999999996,
      "long": 126.8303597,
      "ntu": 0.08,
      "chlorine": 0.24,
      "pH": 7.0
    },
    {
      "index": 180,
      "name": "서울대공원",
      "address": "경기도 과천시 막계동 553",
      "lat": 37.429953999999995,
      "long": 127.01558689999999,
      "ntu": null,
      "chlorine": null,
      "pH": null
    },
    {
      "index": 181,
      "name": "서울숲공원",
      "address": "서울특별시 성동구 성수동1가 685-243",
      "lat": 37.542979200000005,
      "long": 127.0395095,
      "ntu": 0.1,
      "chlorine": 0.17,
      "pH": 7.2
    },
    {
      "index": 182,
      "name": "서울시인재개발원",
      "address": "서울특별시 서초구 서초동 1185",
      "lat": 37.4801959,
      "long": 127.02077079999998,
      "ntu": null,
      "chlorine": null,
      "pH": null
    },
    {
      "index": 183,
      "name": "서울특별시청",
      "address": "서울특별시 중구 세종대로 110",
      "lat": 37.566610299999994,
      "long": 126.9783882,
      "ntu": null,
      "chlorine": null,
      "pH": null
    },
    {
      "index": 184,
      "name": "선유도공원",
      "address": "서울특별시 영등포구 양화동 104-2",
      "lat": 37.543166799999995,
      "long": 126.8997384,
      "ntu": null,
      "chlorine": null,
      "pH": null
    },
    {
      "index": 185,
      "name": "선정릉근린공원",
      "address": "서울특별시 강남구 삼성2동 135-4",
      "lat": 37.5071581,
      "long": 127.04944609999998,
      "ntu": null,
      "chlorine": null,
      "pH": null
    },
    {
      "index": 186,
      "name": "성북근린공원",
      "address": "서울특별시 성북구 성북동 168-294",
      "lat": 37.5955819,
      "long": 127.007127,
      "ntu": null,
      "chlorine": null,
      "pH": null
    },
    {
      "index": 187,
      "name": "성북쉼터",
      "address": "서울특별시 성북구 성북동 118-2",
      "lat": 37.592516700000004,
      "long": 126.9978055,
      "ntu": 0.22,
      "chlorine": 0.23,
      "pH": 7.2
    },
    {
      "index": 188,
      "name": "성북천(구청뒤 바닥분수대)",
      "address": "서울특별시 성북구 동선동 2가 1-6",
      "lat": 37.5902183,
      "long": 127.0169317,
      "ntu": 0.24,
      "chlorine": 0.18,
      "pH": 7.0
    },
    {
      "index": 189,
      "name": "성북천(동진교)",
      "address": "서울특별시 동대문구 용신동 255-41",
      "lat": 37.570997,
      "long": 127.0279739,
      "ntu": 0.07,
      "chlorine": 0.13,
      "pH": 7.0
    },
    {
      "index": 190,
      "name": "성북천(보문1교 진입로)",
      "address": "서울특별시 성북구 안암동 4가 6-2",
      "lat": 37.580730100000004,
      "long": 127.0232215,
      "ntu": 0.25,
      "chlorine": 0.17,
      "pH": 7.3
    },
    {
      "index": 191,
      "name": "성북천(삼선교 분수마루)",
      "address": "서울특별시 성북구 동소문동 1가 1-2",
      "lat": 37.5886994,
      "long": 127.0063597,
      "ntu": 0.24,
      "chlorine": 0.19,
      "pH": 7.3
    },
    {
      "index": 192,
      "name": "소락정마을마당공원",
      "address": "서울특별시 관악구 신림동 597-169",
      "lat": 37.4761626,
      "long": 126.91962649999999,
      "ntu": 0.17,
      "chlorine": 0.22,
      "pH": 7.3
    },
    {
      "index": 193,
      "name": "손기정공원",
      "address": "서울특별시 중구 만리동2가 32-4",
      "lat": 37.5549802,
      "long": 126.96475430000001,
      "ntu": null,
      "chlorine": null,
      "pH": null
    },
    {
      "index": 194,
      "name": "솔길어린이공원",
      "address": "서울특별시 구로구 구로동 391-1",
      "lat": 37.489311,
      "long": 126.88059890000001,
      "ntu": 0.13,
      "chlorine": 0.23,
      "pH": 7.3
    },
    {
      "index": 195,
      "name": "솔뫼 공원",
      "address": "서울특별시 강서구 화곡1동 379-32",
      "lat": 37.5379228,
      "long": 126.83849599999999,
      "ntu": null,
      "chlorine": null,
      "pH": null
    },
    {
      "index": 196,
      "name": "솔밭공원",
      "address": "서울특별시 강북구 우이동 산59-1",
      "lat": 37.653405299999996,
      "long": 127.0103909,
      "ntu": null,
      "chlorine": null,
      "pH": null
    },
    {
      "index": 197,
      "name": "솔밭근린공원",
      "address": "서울특별시 강북구 삼양로 561",
      "lat": 37.653025799999995,
      "long": 127.01227250000001,
      "ntu": null,
      "chlorine": null,
      "pH": null
    },
    {
      "index": 198,
      "name": "솔향기어린이공원",
      "address": "서울특별시 성북구 길음동 1190",
      "lat": 37.608140500000005,
      "long": 127.02132250000001,
      "ntu": 0.24,
      "chlorine": 0.23,
      "pH": 6.9
    },
    {
      "index": 199,
      "name": "송월어린이공원",
      "address": "서울특별시 강북구 송중동 89-12",
      "lat": null,
      "long": null,
      "ntu": null,
      "chlorine": null,
      "pH": null
    },
    {
      "index": 200,
      "name": "송파나루",
      "address": "서울특별시 송파구 석촌동 185",
      "lat": 37.5064119,
      "long": 127.09796259999999,
      "ntu": null,
      "chlorine": null,
      "pH": null
    },
    {
      "index": 201,
      "name": "송파나루공원",
      "address": "서울특별시 송파구 신천동 32",
      "lat": 37.511333799999996,
      "long": 127.10515729999999,
      "ntu": null,
      "chlorine": null,
      "pH": null
    },
    {
      "index": 202,
      "name": "수도 박물관",
      "address": "서울특별시 성동구 성수동1가 685-84",
      "lat": 37.542176700000006,
      "long": 127.0420649,
      "ntu": null,
      "chlorine": null,
      "pH": null
    },
    {
      "index": 203,
      "name": "수도박물관",
      "address": "서울특별시 성동구 성수동1가 671-13",
      "lat": 37.551129700000004,
      "long": 127.04318400000001,
      "ntu": null,
      "chlorine": null,
      "pH": null
    },
    {
      "index": 204,
      "name": "수락산당고개지구공원",
      "address": "서울특별시 노원구 상계3.4동 산151-1",
      "lat": 37.6686078,
      "long": 127.07666609999998,
      "ntu": 0.13,
      "chlorine": 0.2,
      "pH": 7.0
    },
    {
      "index": 205,
      "name": "수서까치어린이",
      "address": "서울특별시 수서동 702 수서신동아아파트",
      "lat": 37.490339399999996,
      "long": 127.0997551,
      "ntu": 0.15,
      "chlorine": 0.13,
      "pH": 7.2
    },
    {
      "index": 206,
      "name": "숭인공원",
      "address": "서울특별시 종로구 숭인1동 58-109",
      "lat": 37.5763889,
      "long": 127.0174989,
      "ntu": null,
      "chlorine": null,
      "pH": null
    },
    {
      "index": 207,
      "name": "시내어린이공원",
      "address": "서울특별시 은평구 불광동 100-18",
      "lat": 37.624961799999994,
      "long": 126.9275136,
      "ntu": null,
      "chlorine": null,
      "pH": null
    },
    {
      "index": 208,
      "name": "신계역사공원",
      "address": "서울특별시 용산구 신계동 1-55",
      "lat": 37.5354036,
      "long": 126.9661111,
      "ntu": 0.22,
      "chlorine": 0.25,
      "pH": 7.3
    },
    {
      "index": 209,
      "name": "신길공원",
      "address": "서울특별시 영등포구 신길동 54-11",
      "lat": 37.515671000000005,
      "long": 126.9178145,
      "ntu": null,
      "chlorine": null,
      "pH": null
    },
    {
      "index": 210,
      "name": "신길광장공원",
      "address": "서울특별시 영등포구 신길동 431-15",
      "lat": 37.499348299999994,
      "long": 126.9060924,
      "ntu": null,
      "chlorine": null,
      "pH": null
    },
    {
      "index": 211,
      "name": "신내공원",
      "address": "서울특별시 중랑구 신내1동 311-2",
      "lat": 37.613794399999996,
      "long": 127.09950239999999,
      "ntu": null,
      "chlorine": null,
      "pH": null
    },
    {
      "index": 212,
      "name": "신사공원",
      "address": "서울특별시 강남구 압구정동 422",
      "lat": 37.5267214,
      "long": 127.0214945,
      "ntu": null,
      "chlorine": null,
      "pH": null
    },
    {
      "index": 213,
      "name": "신사근린공원",
      "address": "서울특별시 은평구 신사2동 98-59",
      "lat": 37.592491700000004,
      "long": 126.9101598,
      "ntu": 0.15,
      "chlorine": 0.14,
      "pH": 7.2
    },
    {
      "index": 214,
      "name": "신용산초등학교 공원",
      "address": "서울특별시 용산구 이촌로 255",
      "lat": 37.5204878,
      "long": 126.97588329999999,
      "ntu": 0.14,
      "chlorine": 0.13,
      "pH": 7.2
    },
    {
      "index": 215,
      "name": "신우공원",
      "address": "서울특별시 영등포구 가마산로47길 13",
      "lat": 37.5035831,
      "long": 126.8990937,
      "ntu": null,
      "chlorine": null,
      "pH": null
    },
    {
      "index": 216,
      "name": "신월근린공원",
      "address": "서울특별시 양천구 신월로 99",
      "lat": 37.5183267,
      "long": 126.83276000000001,
      "ntu": 0.12,
      "chlorine": 0.17,
      "pH": 7.1
    },
    {
      "index": 217,
      "name": "신촌명물거리",
      "address": "서울특별시 서대문구 창천동 2-50",
      "lat": 37.5589287,
      "long": 126.93899920000001,
      "ntu": 0.09,
      "chlorine": 0.25,
      "pH": 7.1
    },
    {
      "index": 218,
      "name": "신트리공원",
      "address": "서울특별시 양천구 신정1동 310-7",
      "lat": 37.51461389999999,
      "long": 126.8565153,
      "ntu": null,
      "chlorine": null,
      "pH": null
    },
    {
      "index": 219,
      "name": "신흥공원 샘터",
      "address": "서울특별시 금천구 시흥4동 4-128",
      "lat": 37.459872600000004,
      "long": 126.90780430000001,
      "ntu": null,
      "chlorine": null,
      "pH": null
    },
    {
      "index": 220,
      "name": "신흥어린이공원",
      "address": "서울특별시 은평구 신사동 31-2",
      "lat": 37.5960751,
      "long": 126.91185890000001,
      "ntu": 0.11,
      "chlorine": 0.21,
      "pH": 7.2
    },
    {
      "index": 221,
      "name": "쌍림어린이공원",
      "address": "서울특별시 중구 광희동1가 235-28",
      "lat": 37.564497499999995,
      "long": 127.00517240000002,
      "ntu": 0.15,
      "chlorine": 0.25,
      "pH": 7.1
    },
    {
      "index": 222,
      "name": "아시아공원",
      "address": "서울특별시 송파구 잠실7동 84",
      "lat": 37.5102675,
      "long": 127.07641090000001,
      "ntu": null,
      "chlorine": null,
      "pH": null
    },
    {
      "index": 223,
      "name": "안골 공원",
      "address": "서울특별시 강서구 화곡동 155",
      "lat": 37.535793299999995,
      "long": 126.8508827,
      "ntu": null,
      "chlorine": null,
      "pH": null
    },
    {
      "index": 224,
      "name": "안골어린이공원",
      "address": "서울특별시 동대문구 장안동 402",
      "lat": 37.565356,
      "long": 127.0643043,
      "ntu": 0.14,
      "chlorine": 0.17,
      "pH": 6.9
    },
    {
      "index": 225,
      "name": "안산자연공원",
      "address": "서울특별시 서대문구 연희동 196-7",
      "lat": 37.57441420000001,
      "long": 126.9312652,
      "ntu": 0.12,
      "chlorine": 0.19,
      "pH": 7.1
    },
    {
      "index": 226,
      "name": "안양천(금천교하부)",
      "address": "서울특별시 금천구 가산동 637",
      "lat": 37.4649331,
      "long": 126.88680590000001,
      "ntu": 0.12,
      "chlorine": 0.1,
      "pH": 7.0
    },
    {
      "index": 227,
      "name": "안양천고수부지",
      "address": "서울특별시 영등포구 양화동 8-3",
      "lat": 37.5447848,
      "long": 126.88600520000001,
      "ntu": null,
      "chlorine": null,
      "pH": null
    },
    {
      "index": 228,
      "name": "안양천고수부지",
      "address": "서울특별시 영등포구 양화동 4-1",
      "lat": 37.5458621,
      "long": 126.88518799999999,
      "ntu": null,
      "chlorine": null,
      "pH": null
    },
    {
      "index": 229,
      "name": "안양천고수부지",
      "address": "서울특별시 영등포구 양평동 492",
      "lat": 37.523259700000004,
      "long": 126.880757,
      "ntu": null,
      "chlorine": null,
      "pH": null
    },
    {
      "index": 230,
      "name": "안양천고수부지",
      "address": "서울특별시 영등포구 문래동6가 45-2",
      "lat": 37.5200875,
      "long": 126.88213,
      "ntu": null,
      "chlorine": null,
      "pH": null
    },
    {
      "index": 231,
      "name": "안양천고수부지",
      "address": "서울특별시 영등포구 문래동 52",
      "lat": 37.5122868,
      "long": 126.88946909999999,
      "ntu": null,
      "chlorine": null,
      "pH": null
    },
    {
      "index": 232,
      "name": "안양천고수부지",
      "address": "서울특별시 영등포구 문래동 49-1",
      "lat": 37.5189432,
      "long": 126.88224040000001,
      "ntu": null,
      "chlorine": null,
      "pH": null
    },
    {
      "index": 233,
      "name": "안양천체육공원",
      "address": "서울특별시 구로구 신도림동 271-64",
      "lat": 37.5148084,
      "long": 126.8791034,
      "ntu": null,
      "chlorine": null,
      "pH": null
    },
    {
      "index": 234,
      "name": "암사아리수정수센터 후문 등산로",
      "address": "서울특별시 강동구 암사3동 산10",
      "lat": 37.565102200000005,
      "long": 127.1443543,
      "ntu": 0.1,
      "chlorine": 0.3,
      "pH": 7.3
    },
    {
      "index": 235,
      "name": "암사정수후문공원",
      "address": "서울특별시 강동구 암사3동 354-13",
      "lat": 37.559021,
      "long": 127.14391609999998,
      "ntu": 0.1,
      "chlorine": 0.3,
      "pH": 7.3
    },
    {
      "index": 236,
      "name": "앙카라공원",
      "address": "서울특별시 영등포구 여의동 56",
      "lat": 37.5175268,
      "long": 126.93046729999999,
      "ntu": null,
      "chlorine": null,
      "pH": null
    },
    {
      "index": 237,
      "name": "약초공원",
      "address": "서울특별시 광진구 자양4동 74-21",
      "lat": 37.532940100000005,
      "long": 127.06640039999999,
      "ntu": null,
      "chlorine": null,
      "pH": null
    },
    {
      "index": 238,
      "name": "양재근린공원",
      "address": "서울특별시 서초구 양재동 311",
      "lat": 37.4718487,
      "long": 127.04159720000001,
      "ntu": null,
      "chlorine": null,
      "pH": null
    },
    {
      "index": 239,
      "name": "양재시민의숲",
      "address": "서울특별시 서초구 양재2동 236",
      "lat": 37.4710723,
      "long": 127.0357635,
      "ntu": 0.08,
      "chlorine": 0.2,
      "pH": 7.5
    },
    {
      "index": 240,
      "name": "양재천근린공원",
      "address": "서울특별시 서초구 양재동 261-23",
      "lat": 37.476331200000004,
      "long": 127.0414139,
      "ntu": null,
      "chlorine": null,
      "pH": null
    },
    {
      "index": 241,
      "name": "양천근린공원",
      "address": "서울특별시 양천구 신정동 1047-1",
      "lat": 37.5209689,
      "long": 126.8582578,
      "ntu": null,
      "chlorine": null,
      "pH": null
    },
    {
      "index": 242,
      "name": "양화인공폭포",
      "address": "서울특별시 영등포구 양화동 산2-3",
      "lat": 37.548119,
      "long": 126.882948,
      "ntu": null,
      "chlorine": null,
      "pH": null
    },
    {
      "index": 243,
      "name": "양화지구",
      "address": "서울특별시 영등포구 양화동 29-1",
      "lat": 37.545118200000005,
      "long": 126.89222029999999,
      "ntu": null,
      "chlorine": null,
      "pH": null
    },
    {
      "index": 244,
      "name": "어린이대공원",
      "address": "서울특별시 광진구 능동 18",
      "lat": 37.5495944,
      "long": 127.0815866,
      "ntu": null,
      "chlorine": null,
      "pH": null
    },
    {
      "index": 245,
      "name": "언구비어린이공원",
      "address": "서울특별시 서초구 반포1동 720",
      "lat": 37.508958299999996,
      "long": 127.0202385,
      "ntu": 0.11,
      "chlorine": 0.16,
      "pH": 7.0
    },
    {
      "index": 246,
      "name": "여의도공원",
      "address": "서울특별시 영등포구 여의동 2",
      "lat": 37.52607329999999,
      "long": 126.92247739999999,
      "ntu": null,
      "chlorine": null,
      "pH": null
    },
    {
      "index": 247,
      "name": "여의도자매공원",
      "address": "서울특별시 영등포구 여의동 56",
      "lat": 37.5175268,
      "long": 126.93046729999999,
      "ntu": 0.13,
      "chlorine": 0.15,
      "pH": 7.0
    },
    {
      "index": 248,
      "name": "역삼무궁화 어린이공원",
      "address": "서울특별시 강남구 역삼로 117",
      "lat": 37.493868,
      "long": 127.03222720000001,
      "ntu": null,
      "chlorine": null,
      "pH": null
    },
    {
      "index": 249,
      "name": "연신어린이공원",
      "address": "서울특별시 은평구 불광2동 339-9",
      "lat": 37.6197285,
      "long": 126.9228949,
      "ntu": 0.09,
      "chlorine": 0.16,
      "pH": 7.2
    },
    {
      "index": 250,
      "name": "연화",
      "address": "서울특별시 송파구 문정동 91-2",
      "lat": 37.485772999999995,
      "long": 127.12849550000001,
      "ntu": null,
      "chlorine": null,
      "pH": null
    },
    {
      "index": 251,
      "name": "염창산 공원",
      "address": "서울특별시 강서구 염창동 산30-24",
      "lat": 37.558556200000005,
      "long": 126.8679825,
      "ntu": null,
      "chlorine": null,
      "pH": null
    },
    {
      "index": 252,
      "name": "영등포1공원",
      "address": "서울특별시 영등포구 영등포본동 647-3",
      "lat": 37.5101654,
      "long": 126.90391170000001,
      "ntu": null,
      "chlorine": null,
      "pH": null
    },
    {
      "index": 253,
      "name": "영등포공원",
      "address": "서울특별시 영등포구 영등포본동 582-25",
      "lat": 37.5145105,
      "long": 126.9119344,
      "ntu": null,
      "chlorine": null,
      "pH": null
    },
    {
      "index": 254,
      "name": "영롱이갈대 축구장 1",
      "address": "서울특별시 영등포구 양화동 4-1",
      "lat": 37.5458621,
      "long": 126.88518799999999,
      "ntu": null,
      "chlorine": null,
      "pH": null
    },
    {
      "index": 255,
      "name": "영롱이갈대 축구장 2",
      "address": "서울특별시 영등포구 양화동 141-1",
      "lat": 37.5434396,
      "long": 126.886398,
      "ntu": null,
      "chlorine": null,
      "pH": null
    },
    {
      "index": 256,
      "name": "영롱이억새축구장",
      "address": "서울특별시 영등포구 양화동 22-3",
      "lat": 37.5439505,
      "long": 126.89041950000001,
      "ntu": null,
      "chlorine": null,
      "pH": null
    },
    {
      "index": 257,
      "name": "영롱이인라인마당주변",
      "address": "서울특별시 영등포구 문래동 31",
      "lat": 37.5183092,
      "long": 126.8806114,
      "ntu": null,
      "chlorine": null,
      "pH": null
    },
    {
      "index": 258,
      "name": "영본초등학교 공원",
      "address": "서울특별시 동작구 본동 444-142",
      "lat": null,
      "long": null,
      "ntu": null,
      "chlorine": null,
      "pH": null
    },
    {
      "index": 259,
      "name": "오금",
      "address": "서울특별시 송파구 오금동 53-8",
      "lat": 37.502509499999995,
      "long": 127.1326858,
      "ntu": null,
      "chlorine": null,
      "pH": null
    },
    {
      "index": 260,
      "name": "오동근린공원",
      "address": "서울특별시 강북구 번동 산13",
      "lat": 37.6324439,
      "long": 127.03182050000001,
      "ntu": 0.13,
      "chlorine": 0.11,
      "pH": 7.0
    },
    {
      "index": 261,
      "name": "오동근린공원구봉",
      "address": "서울특별시 강북구 송중동 산25-43",
      "lat": 37.6205613,
      "long": 127.0337145,
      "ntu": null,
      "chlorine": null,
      "pH": null
    },
    {
      "index": 262,
      "name": "오동근린공원율곡",
      "address": "서울특별시 강북구 미아동 산25-44",
      "lat": 37.6197914,
      "long": 127.0364722,
      "ntu": null,
      "chlorine": null,
      "pH": null
    },
    {
      "index": 263,
      "name": "오목교게이트볼주변",
      "address": "서울특별시 영등포구 양평2동 494",
      "lat": 37.5241191,
      "long": 126.88105120000002,
      "ntu": null,
      "chlorine": null,
      "pH": null
    },
    {
      "index": 264,
      "name": "오목근린공원",
      "address": "서울특별시 양천구 목동서로 159-2",
      "lat": 37.527536299999994,
      "long": 126.87363870000001,
      "ntu": null,
      "chlorine": null,
      "pH": null
    },
    {
      "index": 265,
      "name": "오솔길근린공원",
      "address": "서울특별시 양천구 신월7동 979",
      "lat": 37.5211277,
      "long": 126.83599720000001,
      "ntu": null,
      "chlorine": null,
      "pH": null
    },
    {
      "index": 266,
      "name": "온수도시자연공원",
      "address": "서울특별시 구로구 수궁동 산1-1",
      "lat": 37.4950571,
      "long": 126.8243029,
      "ntu": 0.13,
      "chlorine": 0.16,
      "pH": 7.2
    },
    {
      "index": 267,
      "name": "올림픽공원",
      "address": "서울특별시 송파구 오륜동 88",
      "lat": 37.521040299999996,
      "long": 127.116176,
      "ntu": null,
      "chlorine": null,
      "pH": null
    },
    {
      "index": 268,
      "name": "옹기골 공원",
      "address": "서울특별시 강서구 마곡동 427",
      "lat": 37.5737405,
      "long": 126.8216372,
      "ntu": null,
      "chlorine": null,
      "pH": null
    },
    {
      "index": 269,
      "name": "옹기터마을공원",
      "address": "서울특별시 중랑구 신내2동 522-10",
      "lat": 37.602969,
      "long": 127.0955561,
      "ntu": null,
      "chlorine": null,
      "pH": null
    },
    {
      "index": 270,
      "name": "와룡공원",
      "address": "서울특별시 종로구 명륜3가동 산2-21",
      "lat": null,
      "long": null,
      "ntu": null,
      "chlorine": null,
      "pH": null
    },
    {
      "index": 271,
      "name": "용답꽃공원",
      "address": "서울특별시 성동구 용답동 27-1",
      "lat": 37.5601425,
      "long": 127.0540368,
      "ntu": null,
      "chlorine": null,
      "pH": null
    },
    {
      "index": 272,
      "name": "용답어린이공원",
      "address": "서울특별시 성동구 용답동 234-1",
      "lat": 37.5603684,
      "long": 127.0645746,
      "ntu": null,
      "chlorine": null,
      "pH": null
    },
    {
      "index": 273,
      "name": "용답휴식근린공원",
      "address": "서울특별시 성동구 용답동 128-7",
      "lat": 37.5696222,
      "long": 127.047964,
      "ntu": null,
      "chlorine": null,
      "pH": null
    },
    {
      "index": 274,
      "name": "용마도시자연공원(서일대뒷산)",
      "address": "서울특별시 중랑구 면목3.8동 산16-7",
      "lat": 37.587567299999996,
      "long": 127.09868629999998,
      "ntu": null,
      "chlorine": null,
      "pH": null
    },
    {
      "index": 275,
      "name": "용마폭포공원",
      "address": "서울특별시 강서구 가양동 1487-1",
      "lat": 37.5616589,
      "long": 126.8638199,
      "ntu": null,
      "chlorine": null,
      "pH": null
    },
    {
      "index": 276,
      "name": "용산가족공원",
      "address": "서울특별시 용산구 용산동6가 408-2",
      "lat": null,
      "long": null,
      "ntu": null,
      "chlorine": null,
      "pH": null
    },
    {
      "index": 277,
      "name": "용왕산근린공원",
      "address": "서울특별시 양천구 목2동 산12-3",
      "lat": null,
      "long": null,
      "ntu": null,
      "chlorine": null,
      "pH": null
    },
    {
      "index": 278,
      "name": "우장근린공원 축구장",
      "address": "서울특별시 강서구 내발산동 산19-2",
      "lat": 37.551116799999996,
      "long": 126.84210459999998,
      "ntu": 0.13,
      "chlorine": 0.24,
      "pH": 7.1
    },
    {
      "index": 279,
      "name": "우장산 공원",
      "address": "서울특별시 강서구 내발산동 산6-1",
      "lat": null,
      "long": null,
      "ntu": 0.13,
      "chlorine": 0.24,
      "pH": 7.1
    },
    {
      "index": 280,
      "name": "우정의공원",
      "address": "서울특별시 성북구 성북동 230-17",
      "lat": 37.594797899999996,
      "long": 126.9904037,
      "ntu": 0.26,
      "chlorine": 0.25,
      "pH": 7.2
    },
    {
      "index": 281,
      "name": "운현궁공원",
      "address": "서울특별시 종로구 삼일대로 464",
      "lat": 37.576125,
      "long": 126.98705,
      "ntu": null,
      "chlorine": null,
      "pH": null
    },
    {
      "index": 282,
      "name": "원터근린",
      "address": "서울특별시 강동구 명일동 37",
      "lat": 37.5532132,
      "long": 127.15066329999999,
      "ntu": null,
      "chlorine": null,
      "pH": null
    },
    {
      "index": 283,
      "name": "월드컵공원(난지천공원)",
      "address": "서울특별시 마포구 상암동 1538-1",
      "lat": 37.571026700000004,
      "long": 126.88692549999999,
      "ntu": null,
      "chlorine": null,
      "pH": null
    },
    {
      "index": 284,
      "name": "월드컵공원(평화공원)",
      "address": "서울특별시 마포구 상암동 556-6",
      "lat": null,
      "long": null,
      "ntu": null,
      "chlorine": null,
      "pH": null
    },
    {
      "index": 285,
      "name": "월드컵공원(하늘공원)",
      "address": "서울특별시 마포구 상암동 487-42",
      "lat": null,
      "long": null,
      "ntu": null,
      "chlorine": null,
      "pH": null
    },
    {
      "index": 286,
      "name": "월천공원",
      "address": "서울특별시 도봉구 창4동 28",
      "lat": 37.647563700000006,
      "long": 127.05089840000002,
      "ntu": null,
      "chlorine": null,
      "pH": null
    },
    {
      "index": 287,
      "name": "은평평화공원",
      "address": "서울특별시 은평구 녹번동 153-1",
      "lat": 37.6057323,
      "long": 126.9230798,
      "ntu": 0.07,
      "chlorine": 0.21,
      "pH": 7.3
    },
    {
      "index": 288,
      "name": "응봉근린공원",
      "address": "서울특별시 성동구 금호동 2가 산 9-3",
      "lat": 37.552687,
      "long": 127.0167912,
      "ntu": 0.08,
      "chlorine": 0.19,
      "pH": 7.0
    },
    {
      "index": 289,
      "name": "응봉근린공원 (응봉산공원)",
      "address": "서울특별시 중구 신당동 843-2",
      "lat": 37.5578912,
      "long": 127.01674720000001,
      "ntu": 0.08,
      "chlorine": 0.19,
      "pH": 7.0
    },
    {
      "index": 290,
      "name": "응봉근린공원(금호산공원)",
      "address": "서울특별시 성동구 금호동 2가 산 9-1",
      "lat": 37.5525308,
      "long": 127.018022,
      "ntu": null,
      "chlorine": null,
      "pH": null
    },
    {
      "index": 291,
      "name": "응봉근린공원(대현산공원)",
      "address": "서울특별시 성동구 금호1가동 1-173",
      "lat": 37.5566434,
      "long": 127.0205761,
      "ntu": null,
      "chlorine": null,
      "pH": null
    },
    {
      "index": 292,
      "name": "응삼어린이공원",
      "address": "서울특별시 행당동 110 응봉대림강변타운아파트",
      "lat": 37.5549914,
      "long": 127.03770049999999,
      "ntu": null,
      "chlorine": null,
      "pH": null
    },
    {
      "index": 293,
      "name": "응암4동어린이공원",
      "address": "서울특별시 은평구 응암3동 742-9",
      "lat": 37.583312400000004,
      "long": 126.9161061,
      "ntu": null,
      "chlorine": null,
      "pH": null
    },
    {
      "index": 294,
      "name": "의릉공원",
      "address": "서울특별시 성북구 석관동 261-381",
      "lat": 37.605068700000004,
      "long": 127.0599607,
      "ntu": null,
      "chlorine": null,
      "pH": null
    },
    {
      "index": 295,
      "name": "인왕산도시자연공원",
      "address": "서울특별시 서대문구 홍제3동 산 1-100",
      "lat": 37.5928594,
      "long": 126.95483670000002,
      "ntu": 0.11,
      "chlorine": 0.1,
      "pH": 7.0
    },
    {
      "index": 296,
      "name": "인현어린이공원",
      "address": "서울특별시 중구 광희동 142-2",
      "lat": 37.5619045,
      "long": 126.9944818,
      "ntu": null,
      "chlorine": null,
      "pH": null
    },
    {
      "index": 297,
      "name": "자마장공원",
      "address": "서울특별시 광진구 자양로13길 41",
      "lat": 37.534448499999996,
      "long": 127.08219170000001,
      "ntu": null,
      "chlorine": null,
      "pH": null
    },
    {
      "index": 298,
      "name": "자전거 안전체험 교육장",
      "address": "서울특별시 강동구 동남로 930",
      "lat": 37.5569799,
      "long": 127.1569769,
      "ntu": null,
      "chlorine": null,
      "pH": null
    },
    {
      "index": 299,
      "name": "잠실",
      "address": "서울특별시 송파구 잠실동 275",
      "lat": 37.506114399999994,
      "long": 127.08304199999999,
      "ntu": null,
      "chlorine": null,
      "pH": null
    },
    {
      "index": 300,
      "name": "장군봉근린공원",
      "address": "서울특별시 관악구 청룡동 산149-9",
      "lat": 37.4806347,
      "long": 126.9366115,
      "ntu": 0.19,
      "chlorine": 0.18,
      "pH": 7.3
    },
    {
      "index": 301,
      "name": "장승배기역 교통섬",
      "address": "서울특별시 동작구 상도동 368-29",
      "lat": 37.504656700000005,
      "long": 126.93888999999999,
      "ntu": 0.21,
      "chlorine": 0.33,
      "pH": 7.0
    },
    {
      "index": 302,
      "name": "장안공원",
      "address": "서울특별시 서초구 서초동 1556-5",
      "lat": 37.4916811,
      "long": 127.0114578,
      "ntu": null,
      "chlorine": null,
      "pH": null
    },
    {
      "index": 303,
      "name": "장충단공원",
      "address": "서울특별시 중구 장충동2가 산197",
      "lat": null,
      "long": null,
      "ntu": null,
      "chlorine": null,
      "pH": null
    },
    {
      "index": 304,
      "name": "정동근린공원",
      "address": "서울특별시 중구 정동 15-3",
      "lat": 37.568068100000005,
      "long": 126.97157299999999,
      "ntu": null,
      "chlorine": null,
      "pH": null
    },
    {
      "index": 305,
      "name": "정릉2동 주민센터 앞 교통광장",
      "address": "서울특별시 성북구 정릉2동 164-76",
      "lat": 37.605132899999994,
      "long": 127.0113236,
      "ntu": 0.14,
      "chlorine": 0.13,
      "pH": 7.3
    },
    {
      "index": 306,
      "name": "정릉천(용두교)",
      "address": "서울특별시 동대문구 제기동 1158-73",
      "lat": 37.578435999999996,
      "long": 127.0344135,
      "ntu": 0.09,
      "chlorine": 0.13,
      "pH": 7.0
    },
    {
      "index": 307,
      "name": "정릉천(제기1교)",
      "address": "서울특별시 동대문구 제기동 858-4",
      "lat": 37.58661729999999,
      "long": 127.03629609999999,
      "ntu": 0.11,
      "chlorine": 0.15,
      "pH": 7.0
    },
    {
      "index": 308,
      "name": "정릉천변",
      "address": "서울특별시 성북구 정릉동 966-231",
      "lat": 37.6172342,
      "long": 126.99943600000002,
      "ntu": null,
      "chlorine": null,
      "pH": null
    },
    {
      "index": 309,
      "name": "정원소공원",
      "address": "서울특별시 서대문구 홍은동 265-139",
      "lat": 37.5864611,
      "long": 126.93238079999999,
      "ntu": 0.12,
      "chlorine": 0.19,
      "pH": 7.1
    },
    {
      "index": 310,
      "name": "조마공원",
      "address": "서울특별시 금천구 가산동 148-11",
      "lat": 37.475589,
      "long": 126.895728,
      "ntu": 0.15,
      "chlorine": 0.11,
      "pH": 7.0
    },
    {
      "index": 311,
      "name": "종달새 공원",
      "address": "서울특별시 강서구 화곡4동 819-5",
      "lat": 37.535343100000006,
      "long": 126.8580298,
      "ntu": null,
      "chlorine": null,
      "pH": null
    },
    {
      "index": 312,
      "name": "종묘광장공원",
      "address": "서울특별시 종로구 종로1.2.3.4가동 14",
      "lat": 37.57540039999999,
      "long": 126.9797561,
      "ntu": null,
      "chlorine": null,
      "pH": null
    },
    {
      "index": 313,
      "name": "중곡공원",
      "address": "서울특별시 광진구 긴고랑로5길 10",
      "lat": 37.564554,
      "long": 127.079158,
      "ntu": null,
      "chlorine": null,
      "pH": null
    },
    {
      "index": 314,
      "name": "중랑천제방(동대문구)",
      "address": "서울특별시 동대문구 장안동 8-3",
      "lat": 37.5714068,
      "long": 127.07717590000001,
      "ntu": 0.07,
      "chlorine": 0.15,
      "pH": 7.0
    },
    {
      "index": 315,
      "name": "중랑천제방(중랑구)",
      "address": "서울특별시 중랑구 묵동 335",
      "lat": 37.6159602,
      "long": 127.07301480000001,
      "ntu": 0.09,
      "chlorine": 0.19,
      "pH": 7.0
    },
    {
      "index": 316,
      "name": "중마루공원",
      "address": "서울특별시 영등포구 영등포동2가 222",
      "lat": 37.5197951,
      "long": 126.9113865,
      "ntu": null,
      "chlorine": null,
      "pH": null
    },
    {
      "index": 317,
      "name": "중앙어린이공원",
      "address": "서울특별시 관악구 봉천로41길 35",
      "lat": 37.4844974,
      "long": 126.9482987,
      "ntu": 0.2,
      "chlorine": 0.17,
      "pH": 7.5
    },
    {
      "index": 318,
      "name": "증미산둘레길",
      "address": "서울특별시 강서구 가양동 1494-5",
      "lat": 37.5591432,
      "long": 126.865703,
      "ntu": 0.12,
      "chlorine": 0.17,
      "pH": 7.2
    },
    {
      "index": 319,
      "name": "증산생활체육광장공원",
      "address": "서울특별시 은평구 증산동 산18-7",
      "lat": 37.585157200000005,
      "long": 126.90415279999999,
      "ntu": null,
      "chlorine": null,
      "pH": null
    },
    {
      "index": 320,
      "name": "진관사",
      "address": "서울특별시 은평구 진관동 354",
      "lat": 37.638155600000005,
      "long": 126.9465844,
      "ntu": null,
      "chlorine": null,
      "pH": null
    },
    {
      "index": 321,
      "name": "진달래어린이",
      "address": "서울특별시 강동구 명일동 43",
      "lat": 37.5512922,
      "long": 127.1515107,
      "ntu": null,
      "chlorine": null,
      "pH": null
    },
    {
      "index": 322,
      "name": "창경궁",
      "address": "서울특별시 종로구 와룡동 2-87",
      "lat": 37.5782067,
      "long": 126.99672679999999,
      "ntu": null,
      "chlorine": null,
      "pH": null
    },
    {
      "index": 323,
      "name": "창천근린공원",
      "address": "서울특별시 서대문구 창천동 4-112",
      "lat": 37.5581541,
      "long": 126.9400352,
      "ntu": 0.12,
      "chlorine": 0.14,
      "pH": 7.1
    },
    {
      "index": 324,
      "name": "천마",
      "address": "서울특별시 송파구 마천2동 산1-16",
      "lat": 37.4998056,
      "long": 127.1593673,
      "ntu": null,
      "chlorine": null,
      "pH": null
    },
    {
      "index": 325,
      "name": "천사어린이공원",
      "address": "서울특별시 강동구 천호2동 363-4",
      "lat": 37.5443042,
      "long": 127.1285346,
      "ntu": 0.1,
      "chlorine": 0.23,
      "pH": 7.4
    },
    {
      "index": 326,
      "name": "천일어린이",
      "address": "서울특별시 강동구 천호동 221-3",
      "lat": 37.544875399999995,
      "long": 127.1364372,
      "ntu": null,
      "chlorine": null,
      "pH": null
    },
    {
      "index": 327,
      "name": "천호동공원",
      "address": "서울특별시 강동구 천호2동 360",
      "lat": 37.5443828,
      "long": 127.1264297,
      "ntu": 0.1,
      "chlorine": 0.27,
      "pH": 7.5
    },
    {
      "index": 328,
      "name": "천호동성당",
      "address": "서울특별시 강동구 천호동 529-1",
      "lat": 37.541329299999994,
      "long": 127.130701,
      "ntu": 0.07,
      "chlorine": 0.26,
      "pH": 7.3
    },
    {
      "index": 329,
      "name": "청계숲어린이공원",
      "address": "서울특별시 서초구 청룡마을4길 15",
      "lat": 37.4473226,
      "long": 127.05791049999999,
      "ntu": null,
      "chlorine": null,
      "pH": null
    },
    {
      "index": 330,
      "name": "청계천(마전교 옥류천)",
      "address": "서울특별시 중구 방산동 4-122",
      "lat": 37.569409,
      "long": 127.00205749999999,
      "ntu": 0.13,
      "chlorine": 0.11,
      "pH": 7.2
    },
    {
      "index": 331,
      "name": "청계천(오간수교하류 오간수문)",
      "address": "서울특별시 종로구 종로6가 287-7",
      "lat": 37.5698651,
      "long": 127.0096527,
      "ntu": 0.28,
      "chlorine": 0.11,
      "pH": 7.2
    },
    {
      "index": 332,
      "name": "청룡어린이공원",
      "address": "서울특별시 서초구 반포4동 86-1",
      "lat": 37.495895000000004,
      "long": 126.9997298,
      "ntu": null,
      "chlorine": null,
      "pH": null
    },
    {
      "index": 333,
      "name": "청림어울림마당공원",
      "address": "서울특별시 동작구 사당5동 190-258",
      "lat": 37.4890607,
      "long": 126.9617544,
      "ntu": 0.22,
      "chlorine": 0.19,
      "pH": 7.4
    },
    {
      "index": 334,
      "name": "청명어린이공원",
      "address": "서울특별시 동작구 신대방동 719-1",
      "lat": 37.487581799999994,
      "long": 126.907996,
      "ntu": 0.25,
      "chlorine": 0.22,
      "pH": 7.0
    },
    {
      "index": 335,
      "name": "청운공원",
      "address": "서울특별시 종로구 청운효자동 7-4",
      "lat": 37.5907449,
      "long": 126.966388,
      "ntu": 0.25,
      "chlorine": 0.29,
      "pH": 7.2
    },
    {
      "index": 336,
      "name": "초안산근린공원",
      "address": "서울특별시 도봉구 창동 산51-4",
      "lat": 37.649181299999995,
      "long": 127.03977900000001,
      "ntu": 0.15,
      "chlorine": 0.18,
      "pH": 7.0
    },
    {
      "index": 337,
      "name": "초안산배수지공원",
      "address": "서울특별시 노원구 월계동 산63-1",
      "lat": 37.6382246,
      "long": 127.05185039999999,
      "ntu": null,
      "chlorine": null,
      "pH": null
    },
    {
      "index": 338,
      "name": "초안산세대공감공원",
      "address": "서울특별시 도봉구 덕릉로 334-19",
      "lat": 37.6438811,
      "long": 127.04677340000002,
      "ntu": null,
      "chlorine": null,
      "pH": null
    },
    {
      "index": 339,
      "name": "탑골공원",
      "address": "서울특별시 종로구 종로2가 38-1",
      "lat": 37.571206,
      "long": 126.9883481,
      "ntu": null,
      "chlorine": null,
      "pH": null
    },
    {
      "index": 340,
      "name": "투구봉어린이",
      "address": "서울특별시 송파구 가락2동 185",
      "lat": 37.4940474,
      "long": 127.13537040000001,
      "ntu": null,
      "chlorine": null,
      "pH": null
    },
    {
      "index": 341,
      "name": "파리근린공원",
      "address": "서울특별시 양천구 목동동로 363",
      "lat": 37.5344869,
      "long": 126.8770838,
      "ntu": null,
      "chlorine": null,
      "pH": null
    },
    {
      "index": 342,
      "name": "평화어린이",
      "address": "서울특별시 송파구 방이2동 42-2",
      "lat": 37.5163025,
      "long": 127.11202790000002,
      "ntu": null,
      "chlorine": null,
      "pH": null
    },
    {
      "index": 343,
      "name": "푸른골어린이공원",
      "address": "서울특별시 금천구 독산동 1038-9",
      "lat": 37.4665574,
      "long": 126.90323870000002,
      "ntu": 0.2,
      "chlorine": 0.1,
      "pH": 7.1
    },
    {
      "index": 344,
      "name": "하늘어린이공원",
      "address": "서울특별시 강북구 미아동 791-3853",
      "lat": 37.6244175,
      "long": 127.01311969999999,
      "ntu": null,
      "chlorine": null,
      "pH": null
    },
    {
      "index": 345,
      "name": "하마터 공원",
      "address": "서울특별시 강서구 곰달래로37길 15",
      "lat": 37.53197670000001,
      "long": 126.85454890000001,
      "ntu": null,
      "chlorine": null,
      "pH": null
    },
    {
      "index": 346,
      "name": "학동근린공원",
      "address": "서울특별시 강남구 강남대로140길 47",
      "lat": 37.5154929,
      "long": 127.02522240000002,
      "ntu": null,
      "chlorine": null,
      "pH": null
    },
    {
      "index": 347,
      "name": "학여울근린공원",
      "address": "서울특별시 강남구 개포동 183-1",
      "lat": 37.4904259,
      "long": 127.0690117,
      "ntu": null,
      "chlorine": null,
      "pH": null
    },
    {
      "index": 348,
      "name": "한강시민 공원",
      "address": "서울특별시 강서구 양천로27길 279-23",
      "lat": 37.586035700000004,
      "long": 126.8171352,
      "ntu": null,
      "chlorine": null,
      "pH": null
    },
    {
      "index": 349,
      "name": "한강시민공원 (광나루)",
      "address": "서울특별시 강동구 암사2동 637-6",
      "lat": 37.5500281,
      "long": 127.12228640000001,
      "ntu": null,
      "chlorine": null,
      "pH": null
    },
    {
      "index": 350,
      "name": "한강시민공원 (뚝섬지구)",
      "address": "서울특별시 광진구 자양동 427-12",
      "lat": 37.5291698,
      "long": 127.07129109999998,
      "ntu": null,
      "chlorine": null,
      "pH": null
    },
    {
      "index": 351,
      "name": "한강시민공원 (반포지구)",
      "address": "서울특별시 서초구 반포2동 137-41",
      "lat": null,
      "long": null,
      "ntu": null,
      "chlorine": null,
      "pH": null
    },
    {
      "index": 352,
      "name": "한강시민공원 (잠실지구)",
      "address": "서울특별시 송파구 잠실2동 1-1",
      "lat": 37.517773,
      "long": 127.08237779999999,
      "ntu": null,
      "chlorine": null,
      "pH": null
    },
    {
      "index": 353,
      "name": "한강시민공원 (잠원지구)",
      "address": "서울특별시 서초구 잠원동 137",
      "lat": null,
      "long": null,
      "ntu": null,
      "chlorine": null,
      "pH": null
    },
    {
      "index": 354,
      "name": "한강시민공원(여의도,샛강지구)",
      "address": "서울특별시 영등포구 여의도동 8",
      "lat": 37.531338500000004,
      "long": 126.9242179,
      "ntu": null,
      "chlorine": null,
      "pH": null
    },
    {
      "index": 355,
      "name": "한강시민공원(이촌지구)",
      "address": "서울특별시 용산구 이촌로72길 62",
      "lat": 37.5178266,
      "long": 126.9708457,
      "ntu": null,
      "chlorine": null,
      "pH": null
    },
    {
      "index": 356,
      "name": "한강시민공원난지지구",
      "address": "서울특별시 마포구 상암동 487-102",
      "lat": 37.5638731,
      "long": 126.8839065,
      "ntu": null,
      "chlorine": null,
      "pH": null
    },
    {
      "index": 357,
      "name": "한강시민공원-망원지구",
      "address": "서울특별시 서초구 잠원동 121-8",
      "lat": 37.521712799999996,
      "long": 127.0134518,
      "ntu": null,
      "chlorine": null,
      "pH": null
    },
    {
      "index": 358,
      "name": "한내공원",
      "address": "서울특별시 노원구 월계동 1-7",
      "lat": 37.623101899999995,
      "long": 127.06895859999999,
      "ntu": null,
      "chlorine": null,
      "pH": null
    },
    {
      "index": 359,
      "name": "한마음 공원",
      "address": "서울특별시 강서구 등촌3동 690-3",
      "lat": 37.5606742,
      "long": 126.84310249999999,
      "ntu": null,
      "chlorine": null,
      "pH": null
    },
    {
      "index": 360,
      "name": "한사랑어린이공원",
      "address": "서울특별시 금천구 독산동 925-2",
      "lat": 37.4677372,
      "long": 126.9045557,
      "ntu": 0.12,
      "chlorine": 0.1,
      "pH": 7.0
    },
    {
      "index": 361,
      "name": "한울어린이공원",
      "address": "서울특별시 성북구 정릉2동 970-46",
      "lat": 37.6056763,
      "long": 127.0136274,
      "ntu": 0.23,
      "chlorine": 0.29,
      "pH": 7.1
    },
    {
      "index": 362,
      "name": "해누리체육공원",
      "address": "서울특별시 양천구 신정6동 330-4",
      "lat": 37.511540000000004,
      "long": 126.87239950000001,
      "ntu": 0.11,
      "chlorine": 0.19,
      "pH": 7.2
    },
    {
      "index": 363,
      "name": "햇님어린이공원",
      "address": "서울특별시 동작구 상도1동 424",
      "lat": 37.501597,
      "long": 126.9512706,
      "ntu": 0.12,
      "chlorine": 0.21,
      "pH": 7.0
    },
    {
      "index": 364,
      "name": "햇빚어린이공원",
      "address": "서울특별시 노원구 상계9동 646",
      "lat": 37.6666295,
      "long": 127.06034140000001,
      "ntu": null,
      "chlorine": null,
      "pH": null
    },
    {
      "index": 365,
      "name": "행당어린이공원",
      "address": "서울특별시 성동구 행당동 136-8",
      "lat": 37.5577374,
      "long": 127.0371844,
      "ntu": null,
      "chlorine": null,
      "pH": null
    },
    {
      "index": 366,
      "name": "호수구역공원",
      "address": "서울특별시 관악구 대학동 산30-5",
      "lat": 37.4600138,
      "long": 126.9474913,
      "ntu": null,
      "chlorine": null,
      "pH": null
    },
    {
      "index": 367,
      "name": "홍릉공원",
      "address": "서울특별시 동대문구 청량리동 산1-158",
      "lat": 37.589056899999996,
      "long": 127.04610729999999,
      "ntu": null,
      "chlorine": null,
      "pH": null
    },
    {
      "index": 368,
      "name": "홍연어린이공원",
      "address": "서울특별시 서대문구 증가로10길 96-4",
      "lat": 37.580321000000005,
      "long": 126.92671729999999,
      "ntu": 0.1,
      "chlorine": 0.14,
      "pH": 7.1
    },
    {
      "index": 369,
      "name": "홍이어린이",
      "address": "서울특별시 송파구 가락동 14-1",
      "lat": 37.501079700000005,
      "long": 127.12475230000001,
      "ntu": null,
      "chlorine": null,
      "pH": null
    },
    {
      "index": 370,
      "name": "홍제천 생태공원",
      "address": "서울특별시 마포구 성산동 389-1",
      "lat": 37.5634372,
      "long": 126.9017117,
      "ntu": 0.08,
      "chlorine": 0.13,
      "pH": 7.0
    },
    {
      "index": 371,
      "name": "화랑어린이공원",
      "address": "서울특별시 성북구 석관동 340-416",
      "lat": 37.6072275,
      "long": 127.05473980000001,
      "ntu": null,
      "chlorine": null,
      "pH": null
    },
    {
      "index": 372,
      "name": "활터어린이공원",
      "address": "서울특별시 동대문구 전농동 452-17",
      "lat": 37.576782200000004,
      "long": 127.05058559999999,
      "ntu": null,
      "chlorine": null,
      "pH": null
    },
    {
      "index": 373,
      "name": "황금내 공원",
      "address": "서울특별시 강서구 가양3동 1485-5",
      "lat": 37.5609922,
      "long": 126.8657248,
      "ntu": null,
      "chlorine": null,
      "pH": null
    },
    {
      "index": 374,
      "name": "황금내근린공원",
      "address": "서울특별시 강서구 가양동 1487-1",
      "lat": 37.5616589,
      "long": 126.8638199,
      "ntu": 0.11,
      "chlorine": 0.18,
      "pH": 7.2
    },
    {
      "index": 375,
      "name": "효창공원",
      "address": "서울특별시 용산구 임정로 54",
      "lat": 37.54447639999999,
      "long": 126.9580871,
      "ntu": 0.11,
      "chlorine": 0.27,
      "pH": 7.4
    },
    {
      "index": 376,
      "name": "훈련원공원",
      "address": "서울특별시 중구 을지로 227 (을지로5가, 훈련원공원)",
      "lat": 37.5675245,
      "long": 127.0038188,
      "ntu": null,
      "chlorine": null,
      "pH": null
    }
  ]
}